[{"progrnumber": "1", "actual_stop_id": "2825", "stop_lat": "53.29240634", "stop_lon": "-6.2456447079999995", "stop_id": "8250DB002825", "stop_name": "Dundrum, Outside Luas Station"}, {"progrnumber": "2", "actual_stop_id": "2867", "stop_lat": "53.29399753", "stop_lon": "-6.249944971000001", "stop_id": "8250DB002867", "stop_name": "Dundrum, Upper Churchtown Road (Notre Dame School)"}, {"progrnumber": "3", "actual_stop_id": "1035", "stop_lat": "53.29510374", "stop_lon": "-6.256125578", "stop_id": "8250DB001035", "stop_name": "Churchtown (DunLaoghaire-Rathdown), Upper Churchtown Road (Beaumont Avenue)"}, {"progrnumber": "4", "actual_stop_id": "1314", "stop_lat": "53.29422671", "stop_lon": "-6.258231541000001", "stop_id": "8250DB001314", "stop_name": "Churchtown, Nutgrove Avenue"}, {"progrnumber": "5", "actual_stop_id": "1316", "stop_lat": "53.29302074", "stop_lon": "-6.261820909", "stop_id": "8250DB001316", "stop_name": "Nutgrove, Oakdown Road"}, {"progrnumber": "6", "actual_stop_id": "1315", "stop_lat": "53.29216616", "stop_lon": "-6.26424076", "stop_id": "8250DB001315", "stop_name": "Nutgrove, Nutgrove Avenue (Whitebarn Road)"}, {"progrnumber": "8", "actual_stop_id": "4333", "stop_lat": "53.28623689999999", "stop_lon": "-6.266295994", "stop_id": "8250DB004333", "stop_name": "Nutgrove, Marley Court South"}, {"progrnumber": "9", "actual_stop_id": "4334", "stop_lat": "53.28381862", "stop_lon": "-6.265029082000001", "stop_id": "8250DB004334", "stop_name": "Rathfarnham, Broadford Road (Dargle View)"}, {"progrnumber": "10", "actual_stop_id": "4712", "stop_lat": "53.28292044", "stop_lon": "-6.263220753", "stop_id": "8250DB004712", "stop_name": "Nutgrove, Llewellyn Way"}, {"progrnumber": "12", "actual_stop_id": "4987", "stop_lat": "53.2773585", "stop_lon": "-6.263341318999999", "stop_id": "8250DB004987", "stop_name": "Stone Masons Way"}, {"progrnumber": "13", "actual_stop_id": "2979", "stop_lat": "53.27846521", "stop_lon": "-6.268365144", "stop_id": "8250DB002979", "stop_name": "Grange Road (Highfield Avenue)"}, {"progrnumber": "14", "actual_stop_id": "2980", "stop_lat": "53.28001653", "stop_lon": "-6.273071367000001", "stop_id": "8230DB002980", "stop_name": "Rathfarnham, Three Rock Hockey Club"}, {"progrnumber": "15", "actual_stop_id": "2981", "stop_lat": "53.28127239999999", "stop_lon": "-6.277249911", "stop_id": "8230DB002981", "stop_name": "Rathfarnham, Eden Avenue"}, {"progrnumber": "17", "actual_stop_id": "2954", "stop_lat": "53.2780415", "stop_lon": "-6.286317462", "stop_id": "8230DB002954", "stop_name": "Edmondstown, Glenmore Park"}, {"progrnumber": "18", "actual_stop_id": "7067", "stop_lat": "53.27783383", "stop_lon": "-6.288755104", "stop_id": "8230DB007067", "stop_name": "Edmondstown, Whitechurch Green"}, {"progrnumber": "19", "actual_stop_id": "2956", "stop_lat": "53.27812019", "stop_lon": "-6.286164353999999", "stop_id": "8230DB002956", "stop_name": "Edmondstown (South Dublin), Glenmore Park"}, {"progrnumber": "20", "actual_stop_id": "2965", "stop_lat": "53.28030415", "stop_lon": "-6.28427735", "stop_id": "8230DB002965", "stop_name": "Ballyboden, Whitechurch Road"}, {"progrnumber": "21", "actual_stop_id": "2983", "stop_lat": "53.28161858", "stop_lon": "-6.287554071000001", "stop_id": "8230DB002983", "stop_name": "Willbrook, Taylor's Lane (Pearse Brothers Park)"}, {"progrnumber": "22", "actual_stop_id": "2984", "stop_lat": "53.28154371", "stop_lon": "-6.293615923", "stop_id": "8230DB002984", "stop_name": "Ballyboden, Moyville Lawns"}, {"progrnumber": "23", "actual_stop_id": "7449", "stop_lat": "53.28181733", "stop_lon": "-6.295779623", "stop_id": "8230DB007449", "stop_name": "Ballyboden, Taylor's Lane"}, {"progrnumber": "24", "actual_stop_id": "2927", "stop_lat": "53.27713505", "stop_lon": "-6.2970756020000005", "stop_id": "8230DB002927", "stop_name": "Edmondstown, Edmondstown Road"}, {"progrnumber": "25", "actual_stop_id": "2929", "stop_lat": "53.2718329", "stop_lon": "-6.299025643999999", "stop_id": "8230DB002929", "stop_name": "Edmondstown (South Dublin), Rathfarnham Golf Course"}, {"progrnumber": "26", "actual_stop_id": "2930", "stop_lat": "53.26790473", "stop_lon": "-6.298372002000001", "stop_id": "8230DB002930", "stop_name": "Rockbrook, Kilmashogue Cemetery"}, {"progrnumber": "27", "actual_stop_id": "7441", "stop_lat": "53.2643731", "stop_lon": "-6.297163038", "stop_id": "8230DB007441", "stop_name": "Rockbrook, Edmonstown Road (Merry Ploughboy)"}]