progrnumber,actual_stop_id,stop_lat,stop_lon,stop_id,stop_name
1,7347,53.42781517,-6.241562654,8240DB007347,Dublin Airport
2,3669,53.42846554,-6.235079788999999,8240DB003669,"Dublin Airport, Maldron Hotel"
3,7349,53.42527839,-6.234715254,8240DB007349,"Dublin Airport, Great Southern Hotel"
4,1631,53.42167999,-6.231463816000001,8240DB001631,"Dublin Airport, A.L.S.A.A. Sports Club"
5,1632,53.42050015,-6.23312273,8240DB001632,"Dublin Airport, Toberbunny Lodge"
6,5053,53.4191329,-6.235481417999999,8240DB005053,"Dublin Airport, Main Airport Runway"
7,1633,53.41778223,-6.237748995,8240DB001633,"Dublin Airport, Dardistown Cemetery"
8,1634,53.41689185,-6.238929229,8240DB001634,"Dublin Airport, Collinstown Business Park"
9,1635,53.41170491,-6.238872777,8240DB001635,"Dublin Airport, Sports Ground"
10,1636,53.40825271,-6.237601473,8240DB001636,"Santry, Swords Road #3"
11,1637,53.40403965,-6.240197136,8240DB001637,"Santry, Swords Road #2"
12,45,53.36999011,-6.254089717,8220DB000045,"Drumcondra, Upper Drumcondra Road"
28,45,53.36999011,-6.254089717,8220DB000045,"Drumcondra, Upper Drumcondra Road"
13,46,53.36715074,-6.2553779689999995,8220DB000046,"Drumcondra (Dublin), Botanic Avenue"
29,46,53.36715074,-6.2553779689999995,8220DB000046,"Drumcondra (Dublin), Botanic Avenue"
14,47,53.36391612,-6.257298257,8220DB000047,"Drumcondra, Near Train Station"
30,47,53.36391612,-6.257298257,8220DB000047,"Drumcondra, Near Train Station"
15,48,53.36232903,-6.258790465,8220DB000048,"Summerhill (Dublin City), Lower Drumcondra Road"
31,48,53.36232903,-6.258790465,8220DB000048,"Summerhill (Dublin City), Lower Drumcondra Road"
16,49,53.36003184,-6.260897458,8220DB000049,"Ballybough, Lower Dorset Street"
32,49,53.36003184,-6.260897458,8220DB000049,"Ballybough, Lower Dorset Street"
17,51,53.35798985,-6.263249251,8220DB000051,Upper Dorset St (Temple Street)
33,51,53.35798985,-6.263249251,8220DB000051,Upper Dorset St (Temple Street)
18,52,53.35679465,-6.2644997479999995,8220DB000052,"Phibsborough, Upper Dorset St (St.Joseph's Parade)"
34,52,53.35679465,-6.2644997479999995,8220DB000052,"Phibsborough, Upper Dorset St (St.Joseph's Parade)"
19,262,53.35394696,-6.262752648999999,8220DB000262,"Dublin, Garden of Remembrance"
35,262,53.35394696,-6.262752648999999,8220DB000262,"Dublin, Garden of Remembrance"
20,236,53.38202474,-6.23815886,8220DB000236,"Beaumont (Dublin City), Yellow Road"
21,237,53.38203193,-6.2435252,8220DB000237,"Whitehall, Collins Avenue"
22,213,53.38153105,-6.244913767999999,8220DB000213,"Whitehall, Iveragh Road"
23,214,53.37940848,-6.246654552000001,8220DB000214,"Whitehall, Highfield Hospital"
24,4432,53.37720747,-6.248563719,8220DB004432,"Whitehall, Swords Road (Griffith Downs)"
25,119,53.37519048,-6.250765745,8220DB000119,"Drumcondra, Upper Drumcondra Road (Griffith Avenue)"
26,44,53.37301741,-6.252132303,8220DB000044,"Drumcondra (Dublin), Homefarm Road"
