[{"progrnumber": "1", "actual_stop_id": "7391", "stop_lat": "53.33909075", "stop_lon": "-6.249916017", "stop_id": "8220DB007391", "stop_name": "Merrion Square South"}, {"progrnumber": "2", "actual_stop_id": "493", "stop_lat": "53.33985342", "stop_lon": "-6.247376823", "stop_id": "8220DB000493", "stop_name": "Merrion Square, Holles Street"}, {"progrnumber": "3", "actual_stop_id": "494", "stop_lat": "53.34133589", "stop_lon": "-6.251626258", "stop_id": "8220DB000494", "stop_name": "Clare Street"}, {"progrnumber": "4", "actual_stop_id": "495", "stop_lat": "53.34359132", "stop_lon": "-6.249746705", "stop_id": "8220DB000495", "stop_name": "Pearse Station, Outside Train Station"}, {"progrnumber": "5", "actual_stop_id": "400", "stop_lat": "53.34475116", "stop_lon": "-6.252838258", "stop_id": "8220DB000400", "stop_name": "Trinity College, Shaw Street"}, {"progrnumber": "6", "actual_stop_id": "7588", "stop_lat": "53.34518482", "stop_lon": "-6.25483315", "stop_id": "8220DB007588", "stop_name": "Pearse Street"}, {"progrnumber": "7", "actual_stop_id": "7392", "stop_lat": "53.34646042", "stop_lon": "-6.260939259", "stop_id": "8220DB007392", "stop_name": "Temple Bar, Aston Quay"}, {"progrnumber": "8", "actual_stop_id": "312", "stop_lat": "53.34547647", "stop_lon": "-6.266206155", "stop_id": "8220DB000312", "stop_name": "Temple Bar, Wellington Quay"}, {"progrnumber": "9", "actual_stop_id": "1444", "stop_lat": "53.34511841", "stop_lon": "-6.273745471", "stop_id": "8220DB001444", "stop_name": "Dublin City South, Merchant's Quay"}, {"progrnumber": "10", "actual_stop_id": "1445", "stop_lat": "53.34567841", "stop_lon": "-6.27828884", "stop_id": "8220DB001445", "stop_name": "James's Gate, Ushers Quay"}, {"progrnumber": "11", "actual_stop_id": "4407", "stop_lat": "53.34655233", "stop_lon": "-6.285298008", "stop_id": "8220DB004407", "stop_name": "James's Gate, Guinness Store"}, {"progrnumber": "12", "actual_stop_id": "2637", "stop_lat": "53.34588406", "stop_lon": "-6.29385605", "stop_id": "8220DB002637", "stop_name": "Outside Heuston Train Station"}, {"progrnumber": "13", "actual_stop_id": "2721", "stop_lat": "53.34327186", "stop_lon": "-6.310511085", "stop_id": "8220DB002721", "stop_name": "Islandbridge, Con Colbert Road (South Circular Road)"}, {"progrnumber": "14", "actual_stop_id": "7012", "stop_lat": "53.34295414", "stop_lon": "-6.315374679", "stop_id": "8220DB007012", "stop_name": "Islandbridge, Con Colbert Road"}, {"progrnumber": "16", "actual_stop_id": "2201", "stop_lat": "53.35327375", "stop_lon": "-6.364571165", "stop_id": "8230DB002201", "stop_name": "Palmerstown, Lucan Road (The Oval)"}, {"progrnumber": "17", "actual_stop_id": "7239", "stop_lat": "53.35406141", "stop_lon": "-6.368927567", "stop_id": "8230DB007239", "stop_name": "Palmerstown, Lucan Road N4"}, {"progrnumber": "18", "actual_stop_id": "4401", "stop_lat": "53.35475553", "stop_lon": "-6.371710305", "stop_id": "8230DB004401", "stop_name": "Palmerstown, Lucan Road"}, {"progrnumber": "19", "actual_stop_id": "2213", "stop_lat": "53.35571356", "stop_lon": "-6.391984898", "stop_id": "8230DB002213", "stop_name": "Palmerston, Liffey Valley"}, {"progrnumber": "20", "actual_stop_id": "2214", "stop_lat": "53.35609004", "stop_lon": "-6.3999329760000006", "stop_id": "8230DB002214", "stop_name": "Liffey Valley, Clarion Hotel"}, {"progrnumber": "21", "actual_stop_id": "2215", "stop_lat": "53.35830925", "stop_lon": "-6.409284829", "stop_id": "8230DB002215", "stop_name": "Ballyowen, Saint Loman's Hospital"}, {"progrnumber": "22", "actual_stop_id": "2216", "stop_lat": "53.35886528", "stop_lon": "-6.415949824", "stop_id": "8230DB002216", "stop_name": "Ballyowen, Lucan Road"}, {"progrnumber": "23", "actual_stop_id": "4599", "stop_lat": "53.35754968", "stop_lon": "-6.423840929", "stop_id": "8230DB004599", "stop_name": "Ballyowen, Slip Road onto the N4"}, {"progrnumber": "24", "actual_stop_id": "7184", "stop_lat": "53.35213034", "stop_lon": "-6.436163369", "stop_id": "8230DB007184", "stop_name": "Ballyowen, Lucan Bypass"}, {"progrnumber": "25", "actual_stop_id": "2225", "stop_lat": "53.34955221", "stop_lon": "-6.450046763", "stop_id": "8230DB002225", "stop_name": "Lucan, Saint Patrick's Church"}, {"progrnumber": "26", "actual_stop_id": "4620", "stop_lat": "53.34723636", "stop_lon": "-6.45097189", "stop_id": "8230DB004620", "stop_name": "Lucan, Newcastle Road"}, {"progrnumber": "27", "actual_stop_id": "7563", "stop_lat": "53.34557008", "stop_lon": "-6.451392762", "stop_id": "8230DB007563", "stop_name": "Lucan, Sports Grounds"}, {"progrnumber": "28", "actual_stop_id": "7231", "stop_lat": "53.34031891", "stop_lon": "-6.452604238999999", "stop_id": "8230DB007231", "stop_name": "Adamstown (Wexford), Hotel"}, {"progrnumber": "29", "actual_stop_id": "7128", "stop_lat": "53.33796708", "stop_lon": "-6.4569991589999995", "stop_id": "8230DB007128", "stop_name": "Adamstown, Castlegate Way"}, {"progrnumber": "30", "actual_stop_id": "7117", "stop_lat": "53.33764017", "stop_lon": "-6.46091525", "stop_id": "8230DB007117", "stop_name": "Adamstown, Castlegate Estate"}, {"progrnumber": "31", "actual_stop_id": "7118", "stop_lat": "53.33733864", "stop_lon": "-6.464019484", "stop_id": "8230DB007118", "stop_name": "Adamstown, Adamstown Avenue"}]