progrnumber,actual_stop_id,stop_lat,stop_lon,stop_id,stop_name
1,557,53.38883265,-6.073212211,8240DB000557,"Howth, Outside Train Station"
2,558,53.38841925,-6.070434327,8240DB000558,"Howth, Old Courthouse"
3,559,53.38835062,-6.065084884,8240DB000559,"Howth, Howth Road"
4,560,53.38608966,-6.065337782,8240DB000560,"Howth, Howth Abbey Street"
5,562,53.38188159,-6.059154619,8240DB000562,"Howth, Bodeen House"
6,563,53.38025548,-6.057544957,8240DB000563,"Howth, Thormanby Road"
7,564,53.37833497,-6.056625256,8240DB000564,"Baily, Thormanby Road"
8,565,53.37525469,-6.054586082999999,8240DB000565,"Howth, Nursing Home"
9,566,53.37376975,-6.0561267260000005,8240DB000566,"Howth, Kitestown Road"
10,707,53.37248953,-6.058649902000001,8240DB000707,"Howth, Howth Summit"
11,708,53.36639153,-6.060069317000001,8240DB000708,"Howth, Thormanby Road,  Bailey Lighthouse"
12,731,53.36580965,-6.062981004,8240DB000731,"Howth, Brackenhill House,  Baily Lighthouse"
13,710,53.36648514,-6.065835644,8240DB000710,"Howth, Stella Maris Convent"
14,711,53.36646798,-6.068105579,8240DB000711,"Howth, Carrickbrack Road"
15,712,53.36603371,-6.073490003,8240DB000712,"Howth, Old Carrickbrack Road"
16,713,53.36624163,-6.076906876000001,8240DB000713,"Howth, Carrickbrack Road (Ceannchor Road)"
17,714,53.36717045,-6.079885611,8240DB000714,"Howth, Sheilmartin Cottage"
18,715,53.36889883,-6.082843594,8240DB000715,"Howth, Sheerwater"
19,716,53.37233332,-6.0885057620000005,8240DB000716,"Sutton, Dun An Oir House"
20,717,53.37519075,-6.090136354,8240DB000717,"Howth, Howth Golf Club"
21,718,53.37821747,-6.091113228999999,8240DB000718,"Sutton, Saint Fintan's Cemetery"
22,719,53.38051109,-6.094588333,8240DB000719,"Sutton, Carrickbrack Road (St.Fintan's School)"
23,591,53.38431562,-6.144375377,8220DB000591,"Bayside, Dublin Road (Kilbarrack Road)"
24,592,53.38271738,-6.148533882000001,8220DB000592,Dublin Road (James Larkin Road)
25,593,53.38195778,-6.151137449,8220DB000593,Howth Road (Blackbanks)
26,594,53.38116337,-6.155561362,8220DB000594,"Raheny, Howth Road (Greendale Road)"
27,595,53.38059995,-6.159238563,8220DB000595,"Raheny, Berehaven Place"
28,596,53.38025284,-6.161793972000001,8220DB000596,"Kilbarrack, Howth Road"
29,597,53.38001901,-6.164705235,8220DB000597,"Raheny, Howth Road (Maywood Road)"
30,598,53.37983534,-6.169132542000001,8220DB000598,"Raheny, Howth Road (Avondale Park)"
31,599,53.38033533,-6.173019451,8220DB000599,"Raheny, Raheny Library"
32,600,53.38024055,-6.176225351,8220DB000600,"Raheny, Howth Road"
54,600,53.38024055,-6.176225351,8220DB000600,"Raheny, Howth Road"
33,601,53.3792502,-6.179649825,8220DB000601,"Raheny, Howth Road (Cill Eanna Estate)"
55,601,53.3792502,-6.179649825,8220DB000601,"Raheny, Howth Road (Cill Eanna Estate)"
34,602,53.37171235,-6.25323777,8220DB07602,St Patricks College of Education Drumcondra
34,602,53.37814252,-6.183049071,8220DB000602,"Raheny, Cill Eanna Estate (Opposite Ennafort Park)"
56,602,53.37171235,-6.25323777,8220DB07602,St Patricks College of Education Drumcondra
56,602,53.37814252,-6.183049071,8220DB000602,"Raheny, Cill Eanna Estate (Opposite Ennafort Park)"
35,603,53.37157673,-6.253183204,8220DB07603,St Patricks College of Education Drumcondra
35,603,53.37738216,-6.18742543,8220DB000603,"Raheny, Ennafort Park Estate"
57,603,53.37157673,-6.253183204,8220DB07603,St Patricks College of Education Drumcondra
57,603,53.37738216,-6.18742543,8220DB000603,"Raheny, Ennafort Park Estate"
36,604,53.37635464,-6.19079086,8220DB000604,"Raheny, All Saints Road"
58,604,53.37635464,-6.19079086,8220DB000604,"Raheny, All Saints Road"
37,605,53.37565052,-6.193556254,8220DB000605,"Raheny, Howth Road (Brookwood Avenue)"
59,605,53.37565052,-6.193556254,8220DB000605,"Raheny, Howth Road (Brookwood Avenue)"
38,606,53.37470898,-6.19786466,8220DB000606,"Killester, Saint Bridget's Church"
60,606,53.37470898,-6.19786466,8220DB000606,"Killester, Saint Bridget's Church"
39,607,53.37249985,-6.202166149,8220DB000607,"Killester, Howth Road (Furry Park Road)"
61,607,53.37249985,-6.202166149,8220DB000607,"Killester, Howth Road (Furry Park Road)"
40,608,53.37107838,-6.204465315,8220DB000608,"Killester, Howth Road (Castle Ave)"
62,608,53.37107838,-6.204465315,8220DB000608,"Killester, Howth Road (Castle Ave)"
41,609,53.36983754,-6.208620256000001,8220DB000609,"Clontarf, Castle Grove"
63,609,53.36983754,-6.208620256000001,8220DB000609,"Clontarf, Castle Grove"
42,610,53.3683623,-6.211537455,8220DB000610,"Clontarf, Ashbrook Estate"
64,610,53.3683623,-6.211537455,8220DB000610,"Clontarf, Ashbrook Estate"
43,611,53.36675579999999,-6.218908012000001,8220DB000611,"Clontarf, Howth Road (Hollybrook Park)"
65,611,53.36675579999999,-6.218908012000001,8220DB000611,"Clontarf, Howth Road (Hollybrook Park)"
44,612,53.34134678,-6.25052948,8220B007612,Davenport Hotel Merrion Street
44,612,53.36586987,-6.223994026000001,8220DB000612,"Marino, Marino Road"
66,612,53.34134678,-6.25052948,8220B007612,Davenport Hotel Merrion Street
66,612,53.36586987,-6.223994026000001,8220DB000612,"Marino, Marino Road"
45,613,53.36461747,-6.2268109979999995,8220DB000613,"Clontarf, Howth Road"
67,613,53.36461747,-6.2268109979999995,8220DB000613,"Clontarf, Howth Road"
46,614,53.36369279,-6.233551068,8220DB000614,"Fairview, Pedestrian Footbridge"
68,614,53.36369279,-6.233551068,8220DB000614,"Fairview, Pedestrian Footbridge"
47,615,53.36190642,-6.237351299,8220DB000615,"Ballybough, Fairview Park"
69,615,53.36190642,-6.237351299,8220DB000615,"Ballybough, Fairview Park"
48,616,53.35991702,-6.239581965,8220DB000616,"North Strand, Annesley Bridge"
70,616,53.35991702,-6.239581965,8220DB000616,"North Strand, Annesley Bridge"
49,617,53.35789452,-6.242009096,8220DB000617,"Ballybough, North Strand Road"
71,617,53.35789452,-6.242009096,8220DB000617,"Ballybough, North Strand Road"
50,618,53.35611171,-6.244846798999999,8220DB000618,"North Strand, Newcomen Bridge"
72,618,53.35611171,-6.244846798999999,8220DB000618,"North Strand, Newcomen Bridge"
51,619,53.35404463,-6.247305334,8220DB000619,"Connolly Station, Amiens Street"
73,619,53.35404463,-6.247305334,8220DB000619,"Connolly Station, Amiens Street"
52,675,53.35285814,-6.248525759,8220DB000675,Amiens Street Junction Upper Sheriff Str
74,675,53.35285814,-6.248525759,8220DB000675,Amiens Street Junction Upper Sheriff Str
53,620,53.35119348,-6.2514631629999995,8220DB000620,"Dublin, Talbot Street (opp Bank of Ireland)"
75,620,53.35119348,-6.2514631629999995,8220DB000620,"Dublin, Talbot Street (opp Bank of Ireland)"
