progrnumber,actual_stop_id,stop_lat,stop_lon,stop_id,stop_name
1,7333,53.33299953,-6.24704223,8220DB007333,Burlington Road (Mespil Road)
6,793,53.34085979,-6.2584038689999995,8220DB000793,"Dublin City South, Dawson Street"
8,7586,53.34195536,-6.2534181460000005,8220DB007586,Clare Street
9,7587,53.34464202,-6.252136809,8220DB007587,Shaw Street
10,7588,53.34518482,-6.25483315,8220DB007588,Pearse Street
11,328,53.34642645,-6.2610758220000005,8220DB000328,"Temple Bar, Aston Quay"
12,1443,53.34512939,-6.269539559,8220DB001443,"Dublin City South, Essex Quay"
13,1444,53.34511841,-6.273745471,8220DB001444,"Dublin City South, Merchant's Quay"
14,1445,53.34567841,-6.27828884,8220DB001445,"James's Gate, Ushers Quay"
15,1647,53.34835106,-6.282251726,8220DB001647,"Wolfe Tone Quay, Law Society"
16,1648,53.35109137,-6.282802485,8220DB001648,"Arbour Hill, Arbour Place"
17,1649,53.35257014,-6.284380447999999,8220DB001649,"Arbour Hill, Aughrim Street"
18,1911,53.35663451,-6.288258518999999,8220DB001911,"Arbour Hill, Prussia Street"
19,1913,53.35880633,-6.291792325,8220DB001913,"Cabra East, Cabra Drive"
20,1914,53.36021576,-6.294816027,8220DB001914,"Cabra East, Old Cabra Road"
21,1805,53.3611627,-6.2975578610000005,8220DB001805,"Cabra, Dunard Estate"
22,1806,53.36290691,-6.302642142000001,8220DB001806,"Cabra, Navan Road"
23,1660,53.36518655,-6.3093735529999995,8220DB001660,"Cabra, Navan Road (Nephin Road)"
24,1661,53.36644362,-6.313095538,8220DB001661,"Cabra, Navan Road (Church)"
25,1662,53.36754069,-6.31759044,8220DB001662,"Cabra, Navan Road (Kinvara Estate)"
26,1664,53.36940852,-6.32385863,8220DB001664,"Cabra, Navan Road (Ashtown Grove)"
27,1665,53.37065784,-6.32770193,8220DB001665,"Ashtown, Navan Road"
41,1665,53.37065784,-6.32770193,8220DB001665,"Ashtown, Navan Road"
28,1666,53.37159715,-6.330595731,8220DB001666,"Ashtown, Ashtown Roundabout"
29,1807,53.37441446,-6.339262883,8220DB001807,"Ashtown, Navan Road (Old Race Course)"
30,7167,53.37586629999999,-6.3447825920000005,8240DB007167,"Phoenix Park Racecourse, Navan Road Parkway (Outbound)"
31,1808,53.37924155,-6.354226659,8240DB001808,"Castleknock, Navan Road"
32,1813,53.38567975,-6.374108313,8240DB001813,"Blanchardstown, Blanchardstown Village (near junction River Road)"
33,1814,53.38756181,-6.3789978860000005,8240DB001814,"Blanchardstown, Main Street Blanchardstown (Ramor Park)"
34,1852,53.38740632,-6.3834388760000005,8240DB001852,"Blanchardstown, Clonsilla Park"
35,1853,53.38462749,-6.388640414,8240DB001853,"Blanchardstown, Coolmine Woods"
36,1854,53.38358448,-6.391941924,8240DB001854,"Blanchardstown, Coolmine Road"
37,1844,53.38541121,-6.396112507000001,8240DB001844,"Blanchardstown, Fire Station"
38,6172,53.38669418,-6.401972592999999,8240DB006172,"Clonsilla, Blanchardstown Road"
39,4493,53.39058181,-6.400323432,8240DB004493,"Blanchardstown, Fortlawn Estate"
40,4362,53.39311354,-6.3987699760000005,8240DB004362,"Blanchardstown, Millennium Park"
42,7025,53.39399101,-6.391835296,8240DB007025,"Blanchardstown, Shopping Centre"
43,4464,53.39417145,-6.399241503,8240DB004464,"Blanchardstown, Sheepmoor Grove"
44,1869,53.3962485,-6.399975556,8240DB001869,"Blanchardstown, Blakestown Way"
45,1870,53.39805648,-6.399411472000001,8240DB001870,"Blanchardstown, Blakestown National School"
46,1871,53.39964986,-6.402284164,8240DB001871,"Blanchardstown, Briarwood Estate"
47,1872,53.400779500000006,-6.406106821,8240DB001872,"Blanchardstown, Huntstown Road"
48,1873,53.40169842,-6.410313513999999,8240DB001873,"Blanchardstown, Huntstown Green"
49,1874,53.4002318,-6.413571419,8240DB001874,"Blanchardstown, Huntstown Court"
50,1875,53.39826663,-6.415163357000001,8240DB001875,"Blanchardstown, Pinebrook Estate"
51,1876,53.39641922,-6.416825961,8240DB001876,"Blanchardstown, Hartstown Park"
52,1877,53.39342191,-6.418531055,8240DB001877,"Blanchardstown, Hazelwood Estate"
53,1878,53.39112602,-6.415518881000001,8240DB001878,"Blanchardstown, Oakview Estate"
54,1879,53.39117285,-6.409578142999999,8240DB001879,"Blanchardstown, Blakestown Cross"
57,1888,53.38317329,-6.412251486000001,8240DB001888,"Clonsilla, Lambourne Estate"
72,1888,53.38317329,-6.412251486000001,8240DB001888,"Clonsilla, Lambourne Estate"
58,1889,53.38341662,-6.417037862000001,8240DB001889,"Clonsilla, Cunninghams Funeral Home"
73,1889,53.38341662,-6.417037862000001,8240DB001889,"Clonsilla, Cunninghams Funeral Home"
59,1890,53.38353657,-6.4220242789999995,8240DB001890,"Clonsilla, Outside Train Station"
74,1890,53.38353657,-6.4220242789999995,8240DB001890,"Clonsilla, Outside Train Station"
60,7240,53.38378466,-6.425156962000001,8240DB007240,"Clonsilla, Outside Train Station"
75,7240,53.38378466,-6.425156962000001,8240DB007240,"Clonsilla, Outside Train Station"
61,1891,53.38727831,-6.4297336529999995,8240DB001891,"Clonsilla, Saint Joseph's Hospital"
76,1891,53.38727831,-6.4297336529999995,8240DB001891,"Clonsilla, Saint Joseph's Hospital"
62,7156,53.389585700000005,-6.430911647,8240DB007156,"Clonsilla, Grange Road"
77,7156,53.389585700000005,-6.430911647,8240DB007156,"Clonsilla, Grange Road"
63,7020,53.39416363,-6.431149222999999,8240DB007020,"Blanchardstown, Ongar DiSaint Road"
78,7020,53.39416363,-6.431149222999999,8240DB007020,"Blanchardstown, Ongar DiSaint Road"
64,7029,53.39566188,-6.429575375,8240DB007029,"Ongar Park, Ongar Road,  Ravenwood Road"
79,7029,53.39566188,-6.429575375,8240DB007029,"Ongar Park, Ongar Road,  Ravenwood Road"
65,7038,53.39827905,-6.431073017999999,8240DB007038,"Castaheaney, Latchford"
80,7038,53.39827905,-6.431073017999999,8240DB007038,"Castaheaney, Latchford"
66,7011,53.40185896,-6.435392891,8240DB007011,"Castaheaney, Ongar DiSaint Road (Hazelbury Green)"
81,7011,53.40185896,-6.435392891,8240DB007011,"Castaheaney, Ongar DiSaint Road (Hazelbury Green)"
67,2171,53.39792963,-6.442138634,8240DB002171,"Castaheaney, Lilys Way"
82,2171,53.39792963,-6.442138634,8240DB002171,"Castaheaney, Lilys Way"
68,7160,53.39657763,-6.442533878,8240DB007160,"Castaheaney, Ongar"
83,7160,53.39657763,-6.442533878,8240DB007160,"Castaheaney, Ongar"
69,7047,53.39311838,-6.442615085,8240DB007047,"Castaheaney, Ongar Green"
84,7047,53.39311838,-6.442615085,8240DB007047,"Castaheaney, Ongar Green"
70,7161,53.3920627,-6.438172992,8240DB007161,"Castaheaney, Delhurst Estate"
85,7161,53.3920627,-6.438172992,8240DB007161,"Castaheaney, Delhurst Estate"
71,1887,53.38299657,-6.410454154,8240DB001887,"Clonsilla, The Thatch"
56,1887,53.38299657,-6.410454154,8240DB001887,"Clonsilla, The Thatch"
2,783,53.33530854,-6.246977564,8220DB000783,"Dublin City South, Baggot Street Lower"
3,784,53.33645673,-6.248657371,8220DB000784,"Dublin City South, Lower Baggot Street"
4,785,53.3371059,-6.251859372999999,8220DB000785,"Dublin City South, Lower Pembroke Street"
5,786,53.33514671,-6.256174036,8220DB000786,"Dublin City South, Lower Leeson Street"
55,1899,53.38776433,-6.409419563999999,8240DB001899,"Blanchardstown, Shelerin Road (Lohunda Road)"
