[{"progrnumber": "1", "actual_stop_id": "7333", "stop_lat": "53.33299953", "stop_lon": "-6.24704223", "stop_id": "8220DB007333", "stop_name": "Burlington Road (Mespil Road)"}, {"progrnumber": "2", "actual_stop_id": "783", "stop_lat": "53.33530854", "stop_lon": "-6.246977564", "stop_id": "8220DB000783", "stop_name": "Dublin City South, Baggot Street Lower"}, {"progrnumber": "3", "actual_stop_id": "785", "stop_lat": "53.3371059", "stop_lon": "-6.251859372999999", "stop_id": "8220DB000785", "stop_name": "Dublin City South, Lower Pembroke Street"}, {"progrnumber": "4", "actual_stop_id": "786", "stop_lat": "53.33514671", "stop_lon": "-6.256174036", "stop_id": "8220DB000786", "stop_name": "Dublin City South, Lower Leeson Street"}, {"progrnumber": "5", "actual_stop_id": "793", "stop_lat": "53.34085979", "stop_lon": "-6.2584038689999995", "stop_id": "8220DB000793", "stop_name": "Dublin City South, Dawson Street"}, {"progrnumber": "6", "actual_stop_id": "7586", "stop_lat": "53.34195536", "stop_lon": "-6.2534181460000005", "stop_id": "8220DB007586", "stop_name": "Clare Street"}, {"progrnumber": "7", "actual_stop_id": "7587", "stop_lat": "53.34464202", "stop_lon": "-6.252136809", "stop_id": "8220DB007587", "stop_name": "Shaw Street"}, {"progrnumber": "8", "actual_stop_id": "328", "stop_lat": "53.34642645", "stop_lon": "-6.2610758220000005", "stop_id": "8220DB000328", "stop_name": "Temple Bar, Aston Quay"}, {"progrnumber": "9", "actual_stop_id": "1443", "stop_lat": "53.34512939", "stop_lon": "-6.269539559", "stop_id": "8220DB001443", "stop_name": "Dublin City South, Essex Quay"}, {"progrnumber": "10", "actual_stop_id": "1647", "stop_lat": "53.34835106", "stop_lon": "-6.282251726", "stop_id": "8220DB001647", "stop_name": "Wolfe Tone Quay, Law Society"}, {"progrnumber": "11", "actual_stop_id": "1649", "stop_lat": "53.35257014", "stop_lon": "-6.284380447999999", "stop_id": "8220DB001649", "stop_name": "Arbour Hill, Aughrim Street"}, {"progrnumber": "12", "actual_stop_id": "1911", "stop_lat": "53.35663451", "stop_lon": "-6.288258518999999", "stop_id": "8220DB001911", "stop_name": "Arbour Hill, Prussia Street"}, {"progrnumber": "13", "actual_stop_id": "1805", "stop_lat": "53.3611627", "stop_lon": "-6.2975578610000005", "stop_id": "8220DB001805", "stop_name": "Cabra, Dunard Estate"}, {"progrnumber": "14", "actual_stop_id": "1662", "stop_lat": "53.36754069", "stop_lon": "-6.31759044", "stop_id": "8220DB001662", "stop_name": "Cabra, Navan Road (Kinvara Estate)"}, {"progrnumber": "15", "actual_stop_id": "1666", "stop_lat": "53.37159715", "stop_lon": "-6.330595731", "stop_id": "8220DB001666", "stop_name": "Ashtown, Ashtown Roundabout"}, {"progrnumber": "16", "actual_stop_id": "1808", "stop_lat": "53.37924155", "stop_lon": "-6.354226659", "stop_id": "8240DB001808", "stop_name": "Castleknock, Navan Road"}, {"progrnumber": "17", "actual_stop_id": "7475", "stop_lat": "53.39546547", "stop_lon": "-6.395208133", "stop_id": "8240DB007475", "stop_name": "Blanchardstown Retail Park"}, {"progrnumber": "18", "actual_stop_id": "6107", "stop_lat": "53.38733001", "stop_lon": "-6.411901348", "stop_id": "8240DB006107", "stop_name": "Blanchardstown, Charnwood"}, {"progrnumber": "19", "actual_stop_id": "6109", "stop_lat": "53.38914845", "stop_lon": "-6.421606217999999", "stop_id": "8240DB006109", "stop_name": "Clonsilla, Mount Symon"}, {"progrnumber": "20", "actual_stop_id": "6110", "stop_lat": "53.39069797", "stop_lon": "-6.430058832", "stop_id": "8240DB006110", "stop_name": "Blanchardstown, Allendale Square"}, {"progrnumber": "21", "actual_stop_id": "7029", "stop_lat": "53.39566188", "stop_lon": "-6.429575375", "stop_id": "8240DB007029", "stop_name": "Ongar Park, Ongar Road,  Ravenwood Road"}, {"progrnumber": "22", "actual_stop_id": "7038", "stop_lat": "53.39827905", "stop_lon": "-6.431073017999999", "stop_id": "8240DB007038", "stop_name": "Castaheaney, Latchford"}, {"progrnumber": "23", "actual_stop_id": "7011", "stop_lat": "53.40185896", "stop_lon": "-6.435392891", "stop_id": "8240DB007011", "stop_name": "Castaheaney, Ongar DiSaint Road (Hazelbury Green)"}, {"progrnumber": "24", "actual_stop_id": "7160", "stop_lat": "53.39657763", "stop_lon": "-6.442533878", "stop_id": "8240DB007160", "stop_name": "Castaheaney, Ongar"}, {"progrnumber": "25", "actual_stop_id": "7047", "stop_lat": "53.39311838", "stop_lon": "-6.442615085", "stop_id": "8240DB007047", "stop_name": "Castaheaney, Ongar Green"}, {"progrnumber": "26", "actual_stop_id": "7161", "stop_lat": "53.3920627", "stop_lon": "-6.438172992", "stop_id": "8240DB007161", "stop_name": "Castaheaney, Delhurst Estate"}]