progrnumber,actual_stop_id,stop_lat,stop_lon,stop_id,stop_name
1,6004,53.35280357,-6.260771148,8220DB006004,"Dublin, The Gate Hotel"
2,7,53.35284091,-6.264570261,8220DB000007,"Rotunda, Rotunda Hospital"
3,11,53.356958299999995,-6.264628311,8220DB000011,"Phibsborough, Upper Dorset St (St.Joseph's Parade)"
4,14,53.35853124,-6.262776506,8220DB000014,"Phibsborough, Lower Dorset Street"
5,15,53.36008858,-6.26109047,8220DB000015,"Ballybough, Lower Dorset Street"
6,834,53.36197935,-6.260697936000001,8220DB000834,"Drumcondra (Dublin), Binns Bridge"
7,835,53.36256033,-6.26294315,8220DB000835,"Drumcondra (Dublin), Lower Saint Brigid's Road"
8,836,53.3632915,-6.266249162,8220DB000836,"Drumcondra (Dublin), Claude Road"
9,837,53.36370153,-6.267870355,8220DB000837,"Drumcondra (Dublin), David Road"
10,1506,53.36677782,-6.272373909,8220DB001506,"Glasnevin, Finglas Road"
11,1507,53.36839052,-6.274502692,8220DB001507,"Glasnevin, Saint Vincent's School"
12,1508,53.369910899999994,-6.278333551,8220DB001508,"Glasnevin, Claremont Court"
13,1509,53.37292583,-6.28422366,8220DB001509,"Finglas South, Finglas Road"
14,1510,53.37690693,-6.287310237000001,8220DB001510,"Glasnevin, Finglas Road"
15,1511,53.37823452,-6.287752985,8220DB001511,"Finglas South, Finglas Road (Opp Old Finglas Road)"
16,1512,53.38217432,-6.291728835,8220DB001512,"Finglas South, Ardmore Hotel"
17,1538,53.38447414,-6.294793755,8220DB001538,"Finglas South, Finglas Road"
18,4548,53.38623592,-6.29606136,8220DB004548,"Glasnevin, Finglas Place"
19,1514,53.38946516,-6.300021913999999,8220DB001514,Finglas Village (Seamus Ennis Road)
20,980,53.38980457,-6.303030463,8220DB000980,"Finglas, Mellowes Crescent"
21,981,53.38978091,-6.307060832,8220DB000981,"Finglas, Mellowes Road"
22,1576,53.38931741,-6.313048125,8220DB001576,"Finglas South, Cappagh Road"
23,1577,53.38988581,-6.3157470170000005,8220DB001577,"Finglas South, Abbottstown Road"
24,1578,53.39038513,-6.3180126770000005,8220DB001578,"Finglas, Cappagh Road"
25,4364,53.39291139,-6.322529185,8220DB004364,"Finglas, Mater Christi School"
26,1579,53.39352158,-6.323738177,8220DB001579,"Finglas, Cappagh Hospital"
27,1580,53.39790321,-6.334333152,8240DB001580,"Blanchardstown, Cappagh Cross"
28,7237,53.39714127,-6.3415810089999995,8240DB007237,"Cloghran, Ballycoolin Road"
29,7241,53.39774486,-6.3468659160000005,8240DB007241,"Cloghran, Ballycoolin Road (Rosemount Business Park)"
30,7247,53.3987924,-6.351772895,8240DB007247,"Cloghran, Rosemount Business Park"
31,7243,53.40335258,-6.357883275,8240DB007243,"Blanchardstown, Ballycoolin Road (Snugborough Road)"
32,7126,53.40587682,-6.356477504,8240DB007126,"Cloghran, Business Park (Ballycoolin Road)"
33,7124,53.40843447,-6.358153812,8240DB007124,"Cloghran, Business Park"
34,7343,53.41284468,-6.361218217,8240DB007343,"Cloghran, Ballycoolin Business Park"
35,7318,53.40991475,-6.368445799,8240DB007318,"Cloghran, Cruiserath Road"
36,4978,53.40925753,-6.370997995,8240DB004978,"Corduff (Fingal), Blanchardstown Corporate Park"
37,4979,53.41133678,-6.377823101000001,8240DB004979,"Corduff (Fingal), Cruiserath Road"
38,4986,53.41520327,-6.3852430579999995,8240DB004986,"Tyrrelstown, Curragh Hall Gate"
39,7107,53.41704744,-6.386030725,8240DB007107,"Tyrrelstown, Bealing Boulevard"
40,7102,53.41815047,-6.387177505,8240DB007102,"Ballentree Village, Bealing Village"
41,7103,53.41983038,-6.393117116,8240DB007103,"Tyrrelstown, Cruise Park Boulevard"
42,7104,53.42191654,-6.391187743,8240DB007104,"Tyrrelstown, The Boulevard"
43,7105,53.42135069,-6.387883912,8240DB007105,"Tyrrelstown, Belgree Boulevard"
44,7106,53.42098865,-6.385700891,8240DB007106,"Tyrrelstown, French Park"
45,6005,53.41994262,-6.383453581,8240DB006005,"Tyrrelstown, The Plaza Apartments"
