[{"progrnumber": "1", "actual_stop_id": "4953", "stop_lat": "53.30496107", "stop_lon": "-6.21703967", "stop_id": "8250DB004953", "stop_name": "Belfield, University College Dublin"}, {"progrnumber": "2", "actual_stop_id": "768", "stop_lat": "53.30941819", "stop_lon": "-6.21877483", "stop_id": "8250DB000768", "stop_name": "Dublin (UCD Stillorgan Rd Flyover)"}, {"progrnumber": "3", "actual_stop_id": "769", "stop_lat": "53.31190109", "stop_lon": "-6.221327857", "stop_id": "8220DB000769", "stop_name": "Donnybrook, Belfield Court"}, {"progrnumber": "4", "actual_stop_id": "770", "stop_lat": "53.31463619", "stop_lon": "-6.225731811", "stop_id": "8220DB000770", "stop_name": "N11 Opp. R.T.E."}, {"progrnumber": "5", "actual_stop_id": "771", "stop_lat": "53.31588007", "stop_lon": "-6.227781522000001", "stop_id": "8220DB000771", "stop_name": "Donnybrook, Teresian School"}, {"progrnumber": "6", "actual_stop_id": "772", "stop_lat": "53.31848526", "stop_lon": "-6.231321063999999", "stop_id": "8220DB000772", "stop_name": "Donnybrook, Donnybrook Bus Garage"}, {"progrnumber": "7", "actual_stop_id": "773", "stop_lat": "53.31991635", "stop_lon": "-6.233273318999999", "stop_id": "8220DB000773", "stop_name": "Donnybrook, Donnybrook Road"}, {"progrnumber": "8", "actual_stop_id": "774", "stop_lat": "53.32161212", "stop_lon": "-6.235499996000001", "stop_id": "8220DB000774", "stop_name": "Donnybrook, Donnybrook Garda Station"}, {"progrnumber": "9", "actual_stop_id": "775", "stop_lat": "53.32348971", "stop_lon": "-6.239085447000001", "stop_id": "8220DB000775", "stop_name": "Donnybrook, Morehampton Road"}, {"progrnumber": "10", "actual_stop_id": "776", "stop_lat": "53.32547924", "stop_lon": "-6.241735821", "stop_id": "8220DB000776", "stop_name": "Donnybrook, Morehampton Road"}, {"progrnumber": "11", "actual_stop_id": "777", "stop_lat": "53.32697216", "stop_lon": "-6.243626143999999", "stop_id": "8220DB000777", "stop_name": "Donnybrook, Morehampton Road"}, {"progrnumber": "12", "actual_stop_id": "906", "stop_lat": "53.32881077", "stop_lon": "-6.247634377000001", "stop_id": "8220DB000906", "stop_name": "Leeson Street Upper"}, {"progrnumber": "13", "actual_stop_id": "909", "stop_lat": "53.33314766", "stop_lon": "-6.254078364", "stop_id": "8220DB000909", "stop_name": "Dublin City South, Lower Leeson Street"}, {"progrnumber": "14", "actual_stop_id": "786", "stop_lat": "53.33514671", "stop_lon": "-6.256174036", "stop_id": "8220DB000786", "stop_name": "Dublin City South, Lower Leeson Street"}, {"progrnumber": "15", "actual_stop_id": "790", "stop_lat": "53.33930686", "stop_lon": "-6.257926526", "stop_id": "8220DB000790", "stop_name": "St Stephens Green North"}, {"progrnumber": "18", "actual_stop_id": "7585", "stop_lat": "53.34190036", "stop_lon": "-6.2533453020000005", "stop_id": "8220DB007585", "stop_name": "Clare Street"}, {"progrnumber": "19", "actual_stop_id": "7587", "stop_lat": "53.34464202", "stop_lon": "-6.252136809", "stop_id": "8220DB007587", "stop_name": "Shaw Street"}, {"progrnumber": "20", "actual_stop_id": "345", "stop_lat": "53.34547582", "stop_lon": "-6.2562931939999995", "stop_id": "8220DB000345", "stop_name": "Trinity College, Garda Station"}, {"progrnumber": "21", "actual_stop_id": "297", "stop_lat": "53.34809376", "stop_lon": "-6.257072558", "stop_id": "8220DB000297", "stop_name": "Dublin, Eden Quay"}, {"progrnumber": "22", "actual_stop_id": "407", "stop_lat": "53.34837959", "stop_lon": "-6.253876506", "stop_id": "8220DB000407", "stop_name": "Custom House Quay"}, {"progrnumber": "23", "actual_stop_id": "2498", "stop_lat": "53.34824354", "stop_lon": "-6.250111877999999", "stop_id": "8220DB002498", "stop_name": "IFSC Custom House Quays"}, {"progrnumber": "24", "actual_stop_id": "2499", "stop_lat": "53.34812783", "stop_lon": "-6.24712751", "stop_id": "8220DB002499", "stop_name": "Jury's Inn Custom House Quay"}, {"progrnumber": "25", "actual_stop_id": "2500", "stop_lat": "53.34773657", "stop_lon": "-6.241916425", "stop_id": "8220DB002500", "stop_name": "Docklands, Samuel Beckett Bridge"}, {"progrnumber": "26", "actual_stop_id": "2501", "stop_lat": "53.34737591", "stop_lon": "-6.236358699", "stop_id": "8220DB002501", "stop_name": "Docklands, North Wall Quay (New Wapping Street)"}, {"progrnumber": "27", "actual_stop_id": "7623", "stop_lat": "53.34686207", "stop_lon": "-6.228974936", "stop_id": "8220DB007623", "stop_name": "East Wall, East Wall Road"}, {"progrnumber": "30", "actual_stop_id": "5031", "stop_lat": "53.44519944", "stop_lon": "-6.23495817", "stop_id": "8240DB005031", "stop_name": "Rathingle, Boroimhe Estate"}, {"progrnumber": "31", "actual_stop_id": "6033", "stop_lat": "53.44782497", "stop_lon": "-6.23807125", "stop_id": "8240DB006033", "stop_name": "Rathingle, Rathingle Road"}, {"progrnumber": "32", "actual_stop_id": "5076", "stop_lat": "53.46125341", "stop_lon": "-6.228373392999999", "stop_id": "8240DB005076", "stop_name": "Broadmeadow, Rathbeale Rd (Brackenstown Ave)"}, {"progrnumber": "33", "actual_stop_id": "3682", "stop_lat": "53.46202403", "stop_lon": "-6.231248052000001", "stop_id": "8240DB003682", "stop_name": "Knocksedan, Glasmore Park"}, {"progrnumber": "42", "actual_stop_id": "3682", "stop_lat": "53.46202403", "stop_lon": "-6.231248052000001", "stop_id": "8240DB003682", "stop_name": "Knocksedan, Glasmore Park"}, {"progrnumber": "34", "actual_stop_id": "3864", "stop_lat": "53.46399913", "stop_lon": "-6.234133062000001", "stop_id": "8240DB003864", "stop_name": "Broadmeadow, Abbylea Avenue"}, {"progrnumber": "43", "actual_stop_id": "3864", "stop_lat": "53.46399913", "stop_lon": "-6.234133062000001", "stop_id": "8240DB003864", "stop_name": "Broadmeadow, Abbylea Avenue"}, {"progrnumber": "35", "actual_stop_id": "3865", "stop_lat": "53.46584409", "stop_lon": "-6.237340037", "stop_id": "8240DB003865", "stop_name": "Knocksedan, Glen Ellan Walk"}, {"progrnumber": "44", "actual_stop_id": "3865", "stop_lat": "53.46584409", "stop_lon": "-6.237340037", "stop_id": "8240DB003865", "stop_name": "Knocksedan, Glen Ellan Walk"}, {"progrnumber": "36", "actual_stop_id": "4910", "stop_lat": "53.46663536", "stop_lon": "-6.23919006", "stop_id": "8240DB004910", "stop_name": "Cianlea Murrough Road Swords"}, {"progrnumber": "45", "actual_stop_id": "4910", "stop_lat": "53.46663536", "stop_lon": "-6.23919006", "stop_id": "8240DB004910", "stop_name": "Cianlea Murrough Road Swords"}, {"progrnumber": "37", "actual_stop_id": "4911", "stop_lat": "53.46560858", "stop_lon": "-6.239654302000001", "stop_id": "8240DB004911", "stop_name": "Ardcian Murrough Road"}, {"progrnumber": "46", "actual_stop_id": "4911", "stop_lat": "53.46560858", "stop_lon": "-6.239654302000001", "stop_id": "8240DB004911", "stop_name": "Ardcian Murrough Road"}, {"progrnumber": "38", "actual_stop_id": "4912", "stop_lat": "53.46413955", "stop_lon": "-6.239383737000001", "stop_id": "8240DB004912", "stop_name": "Lios Cian Murrough Road"}, {"progrnumber": "47", "actual_stop_id": "4912", "stop_lat": "53.46413955", "stop_lon": "-6.239383737000001", "stop_id": "8240DB004912", "stop_name": "Lios Cian Murrough Road"}, {"progrnumber": "39", "actual_stop_id": "4913", "stop_lat": "53.46161913", "stop_lon": "-6.240346503", "stop_id": "8240DB004913", "stop_name": "Valley View Murrough Road Swords"}, {"progrnumber": "48", "actual_stop_id": "4913", "stop_lat": "53.46161913", "stop_lon": "-6.240346503", "stop_id": "8240DB004913", "stop_name": "Valley View Murrough Road Swords"}, {"progrnumber": "40", "actual_stop_id": "4914", "stop_lat": "53.45985177", "stop_lon": "-6.241790066", "stop_id": "8240DB004914", "stop_name": "Knocksedan, Saint Cronan's Avenue"}, {"progrnumber": "49", "actual_stop_id": "4914", "stop_lat": "53.45985177", "stop_lon": "-6.241790066", "stop_id": "8240DB004914", "stop_name": "Knocksedan, Saint Cronan's Avenue"}, {"progrnumber": "41", "actual_stop_id": "4915", "stop_lat": "53.45986299", "stop_lon": "-6.2449974", "stop_id": "8240DB004915", "stop_name": "Swords Manor Brackenstown Road Swords"}, {"progrnumber": "50", "actual_stop_id": "4915", "stop_lat": "53.45986299", "stop_lon": "-6.2449974", "stop_id": "8240DB004915", "stop_name": "Swords Manor Brackenstown Road Swords"}, {"progrnumber": "51", "actual_stop_id": "4915", "stop_lat": "53.45986299", "stop_lon": "-6.2449974", "stop_id": "8240DB004915", "stop_name": "Swords Manor Brackenstown Road Swords"}, {"progrnumber": "28", "actual_stop_id": "3676", "stop_lat": "53.44678249", "stop_lon": "-6.228358451", "stop_id": "8240DB003676", "stop_name": "Rathingle, Dublin Road (Boroimhe)"}, {"progrnumber": "29", "actual_stop_id": "5030", "stop_lat": "53.44456372", "stop_lon": "-6.231476785", "stop_id": "8240DB005030", "stop_name": "Rathingle, Boroimhe Maples"}]