progrnumber,actual_stop_id,stop_lat,stop_lon,stop_id,stop_name
1,395,53.34194005,-6.235276454,8220DB000395,"Ringsend, Ringsend Road"
2,396,53.34246159,-6.239550256,8220DB000396,"Grand Canal Dock, Pearse Street"
3,397,53.34278556,-6.242015007000001,8220DB000397,"Grand Canal Dock, Saint Andrew's Resource Centre"
4,398,53.34329494,-6.245478447000001,8220DB000398,"Pearse Station, Pearse Street"
5,399,53.34386462,-6.2481585,8220DB000399,"Pearse Station, Pearse Street"
6,400,53.34475116,-6.252838258,8220DB000400,"Trinity College, Shaw Street"
7,4522,53.34426249,-6.26060818,8220DB004522,College Green
8,1934,53.34429056,-6.2656234689999994,8220DB001934,"Temple Bar, Dame Street"
9,2310,53.342445700000006,-6.269798428,8220DB002310,"Dublin City South, Werburgh Street"
10,2311,53.33828528,-6.270492467,8220DB002311,"Dublin City South, Kevin Street Garda Station"
11,2312,53.33887885,-6.275484235,8220DB002312,"The Coombe, Newmarket Street"
12,2313,53.33874233,-6.278478182000001,8220DB002313,"The Coombe, Ardee Court"
13,2314,53.33835368,-6.2808214929999995,8220DB002314,"The Coombe, Cork Street"
14,2315,53.33753643,-6.285239284,8220DB002315,"The Coombe, Marion Villas"
15,2094,53.33475197,-6.289750637999999,8220DB002094,"The Coombe, Coombe Maternity Hospital"
16,1406,53.33315293,-6.291691527,8220DB001406,"Dolphins Barn, Dolphin's Barn"
17,1407,53.3315385,-6.294443677,8220DB001407,"Dolphins Barn, Crumlin Road,  Sundrive Road"
18,1409,53.33036674,-6.2973581560000005,8220DB001409,"Dolphins Barn, Crumlin Road,  Sundrive Road"
19,2095,53.32903747,-6.3024707520000005,8220DB002095,"Crumlin, Crumlin College"
20,2096,53.32808359,-6.306817491,8220DB002096,"Crumlin, Crumlin Road"
21,2097,53.32743275,-6.309725806,8220DB002097,"Crumlin, Iveagh Gardens"
22,2099,53.32556158,-6.316600469,8220DB002099,"Drimnagh, Crumlin Road (Cooley Road)"
23,2101,53.32493745,-6.318231362000001,8220DB002101,"Walkinstown, Crumlin Childrens Hospital"
24,2102,53.32419485,-6.326141902000001,8220DB002102,"Drimnagh, Drimnagh Rd,  Balfe Rd"
25,2103,53.3220827,-6.329992417000001,8220DB002103,"Walkinstown, Shopping Centre"
26,2332,53.32106265,-6.33096293,8220DB002332,"Walkinstown, Walkinstown Road (Kilnamanagh Road)"
27,2333,53.31784176,-6.332664653999999,8220DB002333,"Walkinstown, Walkinstown Road (Walkinstown Roundabout)"
28,2334,53.31553401,-6.33475081,8230DB002334,"Greenhills, Mulcahy Keane Estate"
29,4662,53.31330519,-6.341216064,8230DB004662,"Greenhills, Calmount Park"
30,2335,53.31165076,-6.343111145,8230DB002335,"Greenhills, Greenhills Road (Calmount Ave)"
31,2336,53.30885602,-6.345740492000001,8230DB002336,"Greenhills, Greenhills Road"
32,2337,53.30599144,-6.348522243,8230DB002337,"Greenhills, Upper Ballymount Road"
33,2339,53.3025723,-6.351505034,8230DB002339,"Tymon North, Park View"
34,2420,53.30118494,-6.351273401,8230DB002420,"Tymon North, Tymonville Estate"
35,2421,53.29967033,-6.346395631,8230DB002421,"Tymon North, Tymon North Road"
36,2423,53.29826536,-6.3429542329999995,8230DB002423,"Tymon North, Tymon Park"
37,2424,53.29514948,-6.34122963,8230DB002424,"Tymon North, Castletymon Green"
38,2447,53.29298553,-6.342678577999999,8230DB002447,"Tallaght, Castle Lawns Estate"
39,5133,53.29051011,-6.34305941,8230DB005133,"Tallaght, Castle Park"
40,2596,53.28978525,-6.340702471,8230DB002596,"Tymon North, Tallaght Road"
41,2611,53.2869171,-6.3406336329999995,8230DB002611,"Firhouse, Tallaght Youth Rugby Club"
42,2602,53.28429492,-6.344034809,8230DB002602,"Tallaght, Avonmore Park"
43,2613,53.28250533,-6.347853357000001,8230DB002613,"Tallaght, Avonmore Road"
44,2614,53.28142959,-6.350654306,8230DB002614,"Tallaght, Seskin View Road (Millbank Lawns)"
45,2615,53.28068259,-6.355137104,8230DB002615,"Tallaght, Seskin View Road"
46,2535,53.28101333,-6.358918602999999,8230DB002535,"Tallaght, Old Bawn Road (Seskin View Road)"
47,2536,53.28295485,-6.359579081000001,8230DB002536,"Oldbawn, Old Bawn Road (Saint Maelruan's Park)"
48,2616,53.28464121,-6.360639339,8230DB002616,"Tallaght, Old Bawn Estate (Watergate Estate)"
49,2617,53.28671022,-6.362075008,8230DB002617,"Tallaght, Old Bawn Road (Tallaght By-Pass)"
50,2557,53.28850642,-6.363281249,8230DB002557,"Tallaght, Tallaght Village"
51,4436,53.28916826,-6.36697587,8230DB004436,"Tallaght, Blessington Road"
52,5008,53.29045019,-6.369356993999999,8230DB005008,"Tallaght, Belgard Square"
53,4640,53.28939562,-6.373747085,8230DB004640,"Tallaght, Tallaght Hospital"
54,4347,53.28622205,-6.375007513,8230DB004347,"Tallaght, The Square Shopping Centre"
55,2349,53.28502887,-6.378472384,8230DB002349,"Tallaght, Alderwood Estate"
56,2351,53.28320557,-6.384525449,8230DB002351,"Tallaght, Maplewood Estate"
57,2558,53.28024945,-6.383932116,8230DB002558,"Jobstown, Killinarden Heights (opp Killinarden Estate)"
58,2559,53.27638048,-6.378994724,8230DB002559,"Jobstown, Health Centre (Cushlawn Estate)"
59,2560,53.27390226,-6.379838215,8230DB002560,"Oldbawn, Donomore Estate"
60,2561,53.2727603,-6.384439548,8230DB002561,"Killinarden, Donomore Crescent"
61,2562,53.27318507,-6.387932135,8230DB002562,"Oldbawn, Killinarden Heights"
62,2564,53.2737655,-6.391643857999999,8230DB002564,Killinarden Heights (Donomore Avenue)
63,4927,53.27483557,-6.3943476939999995,8230DB004927,"Oldbawn, Killinarden Heights/Avenue"
64,4928,53.27620893,-6.394881024,8230DB004928,"Jobstown, Hazelgrove Court"
65,2352,53.27753723,-6.397410482000001,8230DB002352,"South Dublin, Jobstown House"
66,2573,53.27427537,-6.406859019,8230DB002573,"South Dublin, Kiltalown Cottages"
67,2574,53.27456075,-6.410731975,8230DB002574,"South Dublin, De Selby Estate"
68,2575,53.27715801,-6.418823085,8230DB002575,"Citywest, Westbrook Lawns"
69,4929,53.28080557,-6.421417814,8230DB004929,"Citywest, Saggart Abbey"
70,7460,53.28263162,-6.421530473,8230DB007460,Citywest Road Citywest Shopping Centre
71,4930,53.28756971,-6.4224883639999995,8230DB004930,"Citywest, Citywest Road (Garter Avenue)"
72,4931,53.28901878,-6.425359879,8230DB004931,"Citywest, Castle House"
