progrnumber,actual_stop_id,stop_lat,stop_lon,stop_id,stop_name
1,7188,53.29947658,-6.174747752,8250DB007188,"Blackrock (Dun), Temple Road"
2,3082,53.30045359,-6.178096999,8250DB003082,"Blackrock (DunLaoghaire-Rathdown), Frascati Road"
3,7660,53.29914606,-6.174881877000001,8250DB007660,"Blackrock (DunLaoghaire-Rathdown), Frascati Road"
4,3114,53.29580501,-6.169773491,8250DB003114,"Monkstown (DunLaoghaire-Rathdown), Stradbrook Road"
5,3115,53.29399219,-6.167615733,8250DB003115,"Monkstown, Stradbrook Road"
6,3116,53.28992269,-6.1671749039999995,8250DB003116,"Kill of The Grange, Maynard"
7,3117,53.28560537,-6.166984741,8250DB003117,"Kill of The Grange, Link Road"
8,3118,53.28399613,-6.166378705,8250DB003118,"Deansgrange, Dean's Grange Cemetery"
9,3119,53.28156165,-6.1652981460000005,8250DB003119,"Deansgrange, Cemetery"
10,3120,53.27744994,-6.163284861,8250DB003120,"Deansgrange, Clonkeen Road"
11,3122,53.27398219,-6.1616491710000005,8250DB003122,"Cabinteely, Beech Park Road"
12,3123,53.27176324,-6.160559864,8250DB003123,"Deansgrange, Beech Estate"
13,3124,53.26944409,-6.159385013,8250DB003124,"Cabinteely, South Park Estate"
14,3125,53.26727165,-6.158398881,8250DB003125,Clonkeen Road (Monaloe Crescent)
15,3126,53.2654128,-6.159093437999999,8250DB003126,"Deansgrange, Clonkeen Road"
16,3127,53.26262824,-6.15398125,8250DB003127,"Cabinteely, Cabinteely Park"
17,3128,53.26129755,-6.15105548,8250DB003128,"Cabinteely, Old Bray Road"
19,3130,53.25860364,-6.146015318,8250DB003130,"Ballybrack, Bray Road (opp Kilbogget Park)"
20,3131,53.255517000000005,-6.145204556,8250DB003131,"Ballybrack, Bray Road (opp Kilbogget Park)"
21,3132,53.25271382,-6.142972818,8250DB003132,"Ballybrack, Shanganagh Vale"
22,3133,53.25038947,-6.14090044,8250DB003133,"Ballybrack, Garrison Mews"
23,5046,53.24590618,-6.13929662,8250DB005046,"Carrickmines, Druid Valley"
24,7639,53.24139897,-6.143073229,8250DB007639,"Rathmichael, Bride's Glen Bus Stop"
25,3134,53.2469068,-6.136031335,8250DB003134,"Loughlinstown, Bray Road"
26,3135,53.24292904,-6.130555257,8250DB003135,"Loughlinstown, Loughlinstown Hospital"
27,3136,53.23773734,-6.127350617,8250DB003136,"Shankill, Cottsfoot"
28,3138,53.23435261,-6.124741866,8250DB003138,"Shankill, Saint Anne's Church"
29,3139,53.23006385,-6.124090471000001,8250DB003139,"Shankill, Bray Road"
30,4124,53.22783032,-6.1243828460000005,8250DB004124,"Shankill, Claremount Estate"
31,4125,53.22343165,-6.12360158,8250DB004125,"D??n Laoghaire-Rathdown, Shanganagh Castle"
32,4126,53.22218317,-6.121948811,8250DB004126,"D??n Laoghaire-Rathdown, Shanganagh Cemetery"
33,4127,53.2187787,-6.119806509,8250DB004127,"D??n Laoghaire-Rathdown, Crinken Church"
34,4128,53.21592353,-6.119437408,8250DB004128,"D??n Laoghaire-Rathdown, Woodbrook Golf Club"
35,4129,53.21085564,-6.117263737999999,8350DB004129,"Bray, Bray Road"
36,4130,53.2072818,-6.113512847999999,8350DB004130,"Bray, Castle Street"
37,4131,53.20652979,-6.111434922999999,8350DB004131,"Bray (Wicklow), Castle Street"
38,7294,53.20472445,-6.109253737,8350DB007294,Main Street (Quinnsborough Road)
39,4156,53.20496738,-6.103614006,8350DB004156,Quinnsborough Road (Seymour Rd)
40,4168,53.20443166,-6.101017799,8350DB004168,Outside Train Station
41,4170,53.20348377,-6.106972992,8350DB004170,"Bray, Methodist Church"
42,4132,53.20230047,-6.11000416,8350DB004132,"Bray, Bray Town Hall"
43,4134,53.19757336,-6.108924889,8350DB004134,"Bray, Vevay Road (Church Road)"
44,4135,53.19464638,-6.106868522,8350DB004135,"Bray, Lauderdale Estate"
45,4136,53.1922529,-6.105013392,8350DB004136,"Bray, Putland Villas"
46,4207,53.18939931,-6.102490368,8350DB004207,"Bray, Vevay Road"
47,4208,53.18707077,-6.099076509,8350DB004208,"County Wicklow, Vevay Road(Southern Cross Road)"
48,4209,53.17713663,-6.095027493,8350DB004209,"County Wicklow, Bray Golf Club"
49,4210,53.17433585,-6.095256322000001,8350DB004210,"County Wicklow, Kilruddery Cotteges"
50,4211,53.17210902,-6.093155942999999,8350DB004211,"County Wicklow, Rathdown Upper"
51,4212,53.16681124,-6.087333047,8350DB004212,"County Wicklow, Windgate Link Road"
52,4213,53.16394189,-6.085531259,8350DB004213,"Rathdown Upper, Windgate"
53,5139,53.16170959,-6.084778142,8350DB005139,"County Wicklow, Greystones Road (Windgate)"
54,4214,53.15563901,-6.08234179,8350DB004214,"County Wicklow, Redford Bridge"
55,4215,53.15220845,-6.081418113,8350DB004215,"Greystones, Rathdown Road (Redford Park)"
56,4216,53.14998886,-6.079782679,8350DB004216,"Greystones, Rathdown Road (Chapel Road)"
57,4217,53.14934751,-6.07457826,8350DB004217,"Greystones, Saint Kevin's National School"
58,4218,53.150049800000005,-6.07076403,8350DB004218,"Greystones, Rathdown Road (Church Road)"
59,4219,53.15014822,-6.066303968,8350DB004219,"Greystones, Rathdown Road (Victoria Road)"
60,4220,53.14855402,-6.064446892,8350DB004220,"Greystones, Trafalgar Road"
61,4221,53.14683867,-6.063432644,8350DB004221,"Greystones (Wicklow), La Touche Place"
62,4222,53.14520053,-6.063850212,8350DB004222,"Greystones, Church Road (La Touche Place)"
63,4224,53.14395074,-6.061065994,8350DB004224,"Greystones, Outside Train Station"
64,4225,53.13953251,-6.060771728,8350DB004225,"Greystones, Greystones"
65,4226,53.13834063,-6.063755181,8350DB004226,"Greystones, Roundabout"
66,4227,53.13537969,-6.066294774,8350DB004227,"Greystones, Rugby Club"
67,4228,53.13260161,-6.071800012000001,8350DB004228,"Delgany, Greystones Tennis Club"
68,4229,53.13252146,-6.075734322000001,8350DB004229,"Greystones, Carrig Villa's"
69,4230,53.13315849,-6.077887955,8350DB004230,"Greystones, Killincarrick Cottages"
70,4231,53.13068006,-6.07636958,8350DB004231,"Greystones, Killincarrick Cross"
71,7352,53.12800823,-6.073455274,8350DB007352,"Greystones, Three Trouts Bridge"
72,4246,53.12497761,-6.073366697999999,8350DB004246,"Greystones, Glenbrook Park"
73,4248,53.12189411,-6.072787409,8350DB004248,"Delgany, Kilcoole Road (Charlesland Estate)"
74,4249,53.11943626,-6.070880315,8350DB004249,"Kilcoole, Prettybush"
75,4250,53.11709689,-6.067967121000001,8350DB004250,"Kilcoole, Mountain View"
76,4251,53.11420419,-6.065855935,8350DB004251,"Kilcoole, Kilcoole Road (Loft Lane)"
77,4252,53.11149086,-6.065380193999999,8350DB004252,"Kilcoole, Saint Anthony's School"
78,4253,53.10914482,-6.064828265,8350DB004253,"Kilcoole, Kilcoole (New Road)"
79,4254,53.10533469,-6.064342152,8350DB004254,"Kilcoole, Kilcoole"
80,6137,53.09924328,-6.067288898999999,8350DB006137,"Kilcoole, Kilcoole Golf Club"
81,4256,53.09410547,-6.0675192120000006,8350DB004256,"Kilcoole, Woodstock Business Park"
82,4257,53.09035046,-6.066552731,8350DB004257,"Newcastle (Wicklow), Chippin View Cottage"
83,4258,53.084228700000004,-6.067633323,8350DB004258,"Newcastle, Leabeg House (Leabeg House)"
86,4258,53.084228700000004,-6.067633323,8350DB004258,"Newcastle, Leabeg House (Leabeg House)"
84,4259,53.07834999,-6.06707567,8350DB004259,"Newcastle, Gorse Hill"
87,4259,53.07834999,-6.06707567,8350DB004259,"Newcastle, Gorse Hill"
85,7272,53.07647998,-6.06760724,8350DB007272,"Newcastle, Newcastle Road (Newcastle Road)"
88,7272,53.07647998,-6.06760724,8350DB007272,"Newcastle, Newcastle Road (Newcastle Road)"
