[{"progrnumber": "1", "actual_stop_id": "342", "stop_lat": "53.34556412", "stop_lon": "-6.256800261", "stop_id": "8220DB000342", "stop_name": "Trinity College"}, {"progrnumber": "2", "actual_stop_id": "4495", "stop_lat": "53.34618678", "stop_lon": "-6.256970115", "stop_id": "8220DB004495", "stop_name": "Dublin City South, Hawkin's Street"}, {"progrnumber": "3", "actual_stop_id": "746", "stop_lat": "53.340224600000006", "stop_lon": "-6.255531313", "stop_id": "8220DB000746", "stop_name": "Kildare Street (Natural History Museum)"}, {"progrnumber": "4", "actual_stop_id": "844", "stop_lat": "53.33763187", "stop_lon": "-6.255862398", "stop_id": "8220DB000844", "stop_name": "Stephen's Green, Loreto Convent"}, {"progrnumber": "5", "actual_stop_id": "846", "stop_lat": "53.33345373", "stop_lon": "-6.2541109079999995", "stop_id": "8220DB000846", "stop_name": "Dublin City South, Lower Leeson Street"}, {"progrnumber": "6", "actual_stop_id": "848", "stop_lat": "53.32972799", "stop_lon": "-6.248887998", "stop_id": "8220DB000848", "stop_name": "Dublin City South, Sussex Road"}, {"progrnumber": "7", "actual_stop_id": "758", "stop_lat": "53.32268694", "stop_lon": "-6.23767738", "stop_id": "8220DB000758", "stop_name": "Donnybrook, Donnybrook Fire Station"}, {"progrnumber": "8", "actual_stop_id": "760", "stop_lat": "53.31833019", "stop_lon": "-6.230561956", "stop_id": "8220DB000760", "stop_name": "Donnybrook, Church of the Sacred Heart"}, {"progrnumber": "9", "actual_stop_id": "2007", "stop_lat": "53.30887459", "stop_lon": "-6.21608121", "stop_id": "8250DB002007", "stop_name": "Booterstown, Woodbine Road"}, {"progrnumber": "11", "actual_stop_id": "2014", "stop_lat": "53.28211826", "stop_lon": "-6.192914933", "stop_id": "8250DB002014", "stop_name": "Galloping Green, Beechwood Court"}, {"progrnumber": "12", "actual_stop_id": "2016", "stop_lat": "53.27820873", "stop_lon": "-6.184067149", "stop_id": "8250DB002016", "stop_name": "Deansgrange, Stillorgan Road (Newtownpark Ave)"}, {"progrnumber": "13", "actual_stop_id": "2017", "stop_lat": "53.27419654", "stop_lon": "-6.175015407", "stop_id": "8250DB002017", "stop_name": "Deansgrange, Foxrock Church"}, {"progrnumber": "14", "actual_stop_id": "7362", "stop_lat": "53.26593943", "stop_lon": "-6.157691547000001", "stop_id": "8250DB007362", "stop_name": "Cabinteely, Cabinteely Bypass (Opp Cornelscourt)"}, {"progrnumber": "15", "actual_stop_id": "3134", "stop_lat": "53.2469068", "stop_lon": "-6.136031335", "stop_id": "8250DB003134", "stop_name": "Loughlinstown, Bray Road"}, {"progrnumber": "16", "actual_stop_id": "3135", "stop_lat": "53.24292904", "stop_lon": "-6.130555257", "stop_id": "8250DB003135", "stop_name": "Loughlinstown, Loughlinstown Hospital"}, {"progrnumber": "17", "actual_stop_id": "4211", "stop_lat": "53.17210902", "stop_lon": "-6.093155942999999", "stop_id": "8350DB004211", "stop_name": "County Wicklow, Rathdown Upper"}, {"progrnumber": "24", "actual_stop_id": "4211", "stop_lat": "53.17210902", "stop_lon": "-6.093155942999999", "stop_id": "8350DB004211", "stop_name": "County Wicklow, Rathdown Upper"}, {"progrnumber": "18", "actual_stop_id": "7363", "stop_lat": "53.18172065", "stop_lon": "-6.131901935", "stop_id": "8350DB007363", "stop_name": "Bray, Southern Cross Road (Killarney Road)"}, {"progrnumber": "19", "actual_stop_id": "4588", "stop_lat": "53.18339902", "stop_lon": "-6.12202804", "stop_id": "8350DB004588", "stop_name": "Bray, Cois Sleibhe (Swimming Pool)"}, {"progrnumber": "20", "actual_stop_id": "4589", "stop_lat": "53.184239899999994", "stop_lon": "-6.11608068", "stop_id": "8350DB004589", "stop_name": "Bray, Bray Business Park"}, {"progrnumber": "21", "actual_stop_id": "7364", "stop_lat": "53.18459177", "stop_lon": "-6.108224266000001", "stop_id": "8350DB007364", "stop_name": "Bray, Belmont Estate"}, {"progrnumber": "22", "actual_stop_id": "7365", "stop_lat": "53.18531593", "stop_lon": "-6.104586066", "stop_id": "8350DB007365", "stop_name": "Southern Cross Road (Earlsfort)"}, {"progrnumber": "23", "actual_stop_id": "4210", "stop_lat": "53.17433585", "stop_lon": "-6.095256322000001", "stop_id": "8350DB004210", "stop_name": "County Wicklow, Kilruddery Cotteges"}, {"progrnumber": "25", "actual_stop_id": "4215", "stop_lat": "53.15220845", "stop_lon": "-6.081418113", "stop_id": "8350DB004215", "stop_name": "Greystones, Rathdown Road (Redford Park)"}, {"progrnumber": "26", "actual_stop_id": "4216", "stop_lat": "53.14998886", "stop_lon": "-6.079782679", "stop_id": "8350DB004216", "stop_name": "Greystones, Rathdown Road (Chapel Road)"}, {"progrnumber": "27", "actual_stop_id": "4222", "stop_lat": "53.14520053", "stop_lon": "-6.063850212", "stop_id": "8350DB004222", "stop_name": "Greystones, Church Road (La Touche Place)"}, {"progrnumber": "28", "actual_stop_id": "4224", "stop_lat": "53.14395074", "stop_lon": "-6.061065994", "stop_id": "8350DB004224", "stop_name": "Greystones, Outside Train Station"}, {"progrnumber": "29", "actual_stop_id": "4225", "stop_lat": "53.13953251", "stop_lon": "-6.060771728", "stop_id": "8350DB004225", "stop_name": "Greystones, Greystones"}, {"progrnumber": "10", "actual_stop_id": "4571", "stop_lat": "53.28897905", "stop_lon": "-6.194875357999999", "stop_id": "8250DB004571", "stop_name": "Stillorgan, Stillorgan Road (Stillorgan Park)"}, {"progrnumber": "30", "actual_stop_id": "7462", "stop_lat": "53.12880087", "stop_lon": "-6.062480492000001", "stop_id": "8350DB007462", "stop_name": "Charlesland Road (Seaborne View Apts)"}, {"progrnumber": "31", "actual_stop_id": "7461", "stop_lat": "53.12893197", "stop_lon": "-6.062803372", "stop_id": "8350DB007461", "stop_name": "Charlesland Road Charlesland Shopping Ctr"}, {"progrnumber": "32", "actual_stop_id": "4230", "stop_lat": "53.13315849", "stop_lon": "-6.077887955", "stop_id": "8350DB004230", "stop_name": "Greystones, Killincarrick Cottages"}, {"progrnumber": "33", "actual_stop_id": "4248", "stop_lat": "53.12189411", "stop_lon": "-6.072787409", "stop_id": "8350DB004248", "stop_name": "Delgany, Kilcoole Road (Charlesland Estate)"}, {"progrnumber": "34", "actual_stop_id": "4252", "stop_lat": "53.11149086", "stop_lon": "-6.065380193999999", "stop_id": "8350DB004252", "stop_name": "Kilcoole, Saint Anthony's School"}, {"progrnumber": "35", "actual_stop_id": "4305", "stop_lat": "53.10627199", "stop_lon": "-6.063941575", "stop_id": "8350DB004305", "stop_name": "Kilcoole, Woodbine Cottage"}, {"progrnumber": "36", "actual_stop_id": "4306", "stop_lat": "53.10624378", "stop_lon": "-6.061104886", "stop_id": "8350DB004306", "stop_name": "Kilcoole, Beechdale"}]