progrnumber,actual_stop_id,stop_lat,stop_lon,stop_id,stop_name
1,4392,53.30706911,-6.334239942999999,8230DB004392,"Greenhills, Greenhills College"
2,2446,53.30834648,-6.3401177660000005,8230DB002446,"Greenhills, Greenhills Park"
3,2459,53.31035955,-6.339454382,8230DB002459,"Greenhills, St. James's Road (St. Killian's Ave)"
4,2460,53.31218897,-6.336576909,8230DB002460,"Greenhills, St.James's Rd (St.Brenda's Crescent)"
5,2461,53.31274537,-6.332653189,8230DB002461,"Greenhills, Saint James's Road (St.Conleth's Rd)"
6,2462,53.31382319,-6.330029732000001,8220DB002462,St.James's Road (St.Peter's Road)
7,2463,53.31530445,-6.331187624,8220DB002463,"Walkinstown, Saint Peter's Road (Walkinstown Roundabout)"
8,2431,53.31720321,-6.330708281000001,8220DB002431,"Walkinstown, Cromwell's Fort Road (Walkinstown Roundabout)"
9,2432,53.31701347,-6.32550738,8220DB002432,"Walkinstown, Cromwellsfort Road (Bigger Road)"
10,2433,53.31658623,-6.320691083,8220DB002433,"Walkinstown, Cromwellsfort Road (Cherry Grove)"
11,2434,53.31602660000001,-6.316060201,8220DB002434,"Crumlin, Kimmage Road West"
12,2435,53.31426906,-6.311266606,8220DB002435,"Crumlin, Westbrook"
13,2436,53.31370591,-6.308947527000001,8220DB002436,"Kimmage, Kimmage Road West"
14,2437,53.31268882,-6.30251926,8220DB002437,"Kimmage, Kimmage Road West (Whitehall Road)"
15,2438,53.31248952,-6.299255424,8220DB002438,"Kimmage, Lower Kimmage Road (Fortfield Road)"
16,2439,53.31354587,-6.297697578999999,8220DB002439,"Terenure, Poddle Park"
17,2440,53.31640087,-6.294326915,8220DB002440,"Kimmage, Lower Kimmage Road (Aideen Avenue)"
18,2441,53.31906116,-6.291173722000001,8220DB002441,"Kimmage, Kimmage Grove"
19,2442,53.32045241,-6.28602946,8220DB002442,"Kimmage, Mount Argus Church"
20,2443,53.32189218,-6.2836449960000005,8220DB002443,"Kimmage, Brookfield"
21,2444,53.32429774,-6.2796752929999995,8220DB002444,"Harolds Cross, Lower Kimmage Road"
22,1344,53.32717106,-6.2776079629999995,8220DB001344,"Harolds Cross, Harold's Cross Road (Greenmount Lane)"
23,1345,53.32879608,-6.276236296,8220DB001345,"Harolds Cross, Le Vere Terrace"
24,1347,53.33118301,-6.275344272999999,8220DB001347,"Leonard's Corner, Upper Clanbrassil Street"
25,1348,53.33224954,-6.273889832999999,8220DB001348,"Leonard's Corner, South Circular Road (Longwood Ave)"
26,1349,53.33238573,-6.270881322999999,8220DB001349,South Circular Road (Carlisle St)
27,1350,53.33256109,-6.2674808120000005,8220DB001350,"Kelly's Corner, Saint Kevin's Church"
28,1352,53.33444543,-6.265407334,8220DB001352,"Dublin City South, Upper Camden Street"
29,1353,53.33600953,-6.265418938,8220DB001353,"Dublin City South, Camden Street"
31,1355,53.34009624,-6.265838755,8220DB001355,"Dublin City South, Whitefriars Street Church"
32,1357,53.34256789,-6.26459703,8220DB001357,"Dublin City South, Exchequer Street"
33,1359,53.34439941,-6.26136859,8220DB001359,College Green
34,319,53.34596901,-6.259292057000001,8220DB000319,"Dublin City South, Westmoreland Street"
35,281,53.35090995,-6.260968421,8220DB000281,"Rotunda, Dublin Bus Head Office"
36,4,53.35257451,-6.264175486,8220DB000004,"Rotunda, Rotunda Hospital"
37,194,53.35504065,-6.269979311,8220DB000194,"Phibsborough, Saint Dominic's Youth Club"
38,195,53.35501178,-6.27357098,8220DB000195,"Phibsborough, Constitution Hill"
39,196,53.35688390000001,-6.273750703999999,8220DB000196,"Phibsborough, Broadstone Depot"
40,197,53.35895263,-6.273231374,8220DB000197,Phibsboro Road (Monck Place)
41,198,53.36162538,-6.27283781,8220DB000198,"Phibsborough, Phibsboro Shopping Centre"
42,199,53.36362181,-6.272291246,8220DB000199,"Phibsborough, Phibsboro Road"
43,200,53.36742269,-6.271596444,8220DB000200,"Glasnevin, Prospect Way"
44,201,53.36829109999999,-6.2701186270000004,8220DB000201,"Glasnevin, Botanic Road"
45,148,53.37067017,-6.268068507000001,8220DB000148,"Glasnevin, Mobhi Road (Botanic Road)"
46,149,53.37313859,-6.265984466,8220DB000149,"Glasnevin, Mobhi Road (Mobh?? Drive)"
47,150,53.37565885,-6.264995282999999,8220DB000150,"Glasnevin, Na Fianna Football Ground"
48,27,53.37943896,-6.266585261,8220DB000027,"Glasnevin, Ballymun Road (Griffith Avenue)"
49,28,53.38157864,-6.2660022710000005,8220DB000028,"Wadelai, Glasnevin Tennis Club"
50,29,53.38348825,-6.265669101,8220DB000029,"Whitehall (Dublin City), Ballymun Road"
51,4680,53.38496648,-6.265338406000001,8220DB004680,"Whitehall (Dublin City), DCU Ballymun Road"
52,90,53.38638553,-6.265265672999999,8220DB000090,Ballymun Road (St.Pappin's Road)
53,91,53.38842789,-6.265408142,8220DB000091,Ballymun Road (Glasnevin Avenue)
54,129,53.38989032,-6.2714229360000004,8220DB000129,"Wadelai, Glasnevin Ave (Glasnevin Dr)"
55,130,53.39009201,-6.274181269,8220DB000130,"Glasnevin North, Glasnevin Park"
56,131,53.39038589,-6.2783492370000005,8220DB000131,"Glasnevin North, Glasnevin Avenue (Beneavin Drive)"
57,164,53.38843036,-6.280487923,8220DB000164,"Glasnevin North, Beneavin Road"
58,165,53.38903487,-6.283771249,8220DB000165,"Beneavin Road, Junction Beneavin Park"
59,166,53.3895836,-6.2863051489999995,8220DB000166,"Glasnevin North, Beneavin School"
60,7458,53.39006655,-6.290525706,8220DB007458,Ballygall Road/Avenue
61,4479,53.39130453,-6.294129777999999,8220DB004479,"Finglas, McKee Road"
62,4376,53.39240805,-6.2927323920000005,8220DB004376,"Finglas, Clancy Avenue"
63,4377,53.39448929,-6.289942443999999,8220DB004377,"Finglas, McKee Road"
64,4890,53.39516758,-6.290862585,8220DB004890,"Finglas, Sycamore Road (McKee Road)"
65,4369,53.3972652,-6.292357491000001,8220DB004369,"Poppintree, Finglas Business Park"
66,6219,53.39989555,-6.293395103,8240DB006219,"Charlestown (Dublin City), Melville Estate"
67,6229,53.40181959,-6.2978449670000005,8240DB006229,"Charlestown, Melville Estate"
